{
    "type": "FeatureCollection",
    "name": "l_stations",
    "features": [
        {
            "type": "Feature",
            "properties": {
                "num": "01235001",
                "nom": "MARLIEUX",
                "chemin": "https://object.files.data.gouv.fr/meteofrance/data/synchro_ftp/REF_STATION/FICHECLIM_01235001.pdf"
            },
            "geometry": {
                "type": "Point",
                "coordinates": [
                    5.044333,
                    46.0385
                ]
            }
        },
        {
            "type": "Feature",
            "properties": {
                "num": "01255002",
                "nom": "MONTAGNIEU",
                "chemin": "https://object.files.data.gouv.fr/meteofrance/data/synchro_ftp/REF_STATION/FICHECLIM_01255002.pdf"
            },
            "geometry": {
                "type": "Point",
                "coordinates": [
                    5.469333,
                    45.794333
                ]
            }
        },
        {
            "type": "Feature",
            "properties": {
                "num": "01441001",
                "nom": "VIEU",
                "chemin": "https://object.files.data.gouv.fr/meteofrance/data/synchro_ftp/REF_STATION/FICHECLIM_01441001.pdf"
            },
            "geometry": {
                "type": "Point",
                "coordinates": [
                    5.540833,
                    46.088833
                ]
            }
        },
        {
            "type": "Feature",
            "properties": {
                "num": "01033002",
                "nom": "BELLEGARDE",
                "chemin": "https://object.files.data.gouv.fr/meteofrance/data/synchro_ftp/REF_STATION/FICHECLIM_01033002.pdf"
            },
            "geometry": {
                "type": "Point",
                "coordinates": [
                    5.814167,
                    46.0865
                ]
            }
        },
        {
            "type": "Feature",
            "properties": {
                "num": "01028001",
                "nom": "BANEINS",
                "chemin": "https://object.files.data.gouv.fr/meteofrance/data/synchro_ftp/REF_STATION/FICHECLIM_01028001.pdf"
            },
            "geometry": {
                "type": "Point",
                "coordinates": [
                    4.9045,
                    46.122
                ]
            }
        },
        {
            "type": "Feature",
            "properties": {
                "num": "01037001",
                "nom": "BENONCES",
                "chemin": "https://object.files.data.gouv.fr/meteofrance/data/synchro_ftp/REF_STATION/FICHECLIM_01037001.pdf"
            },
            "geometry": {
                "type": "Point",
                "coordinates": [
                    5.484167,
                    45.862333
                ]
            }
        },
        {
            "type": "Feature",
            "properties": {
                "num": "01174001",
                "nom": "GIRON",
                "chemin": "https://object.files.data.gouv.fr/meteofrance/data/synchro_ftp/REF_STATION/FICHECLIM_01174001.pdf"
            },
            "geometry": {
                "type": "Point",
                "coordinates": [
                    5.7725,
                    46.23
                ]
            }
        },
        {
            "type": "Feature",
            "properties": {
                "num": "01384001",
                "nom": "SAINT RAMBERT EN BUGEY",
                "chemin": "https://object.files.data.gouv.fr/meteofrance/data/synchro_ftp/REF_STATION/FICHECLIM_01384001.pdf"
            },
            "geometry": {
                "type": "Point",
                "coordinates": [
                    5.426667,
                    45.931667
                ]
            }
        },
        {
            "type": "Feature",
            "properties": {
                "num": "01089001",
                "nom": "AMBERIEU",
                "chemin": "https://object.files.data.gouv.fr/meteofrance/data/synchro_ftp/REF_STATION/FICHECLIM_01089001.pdf"
            },
            "geometry": {
                "type": "Point",
                "coordinates": [
                    5.329333,
                    45.9765
                ]
            }
        },
        {
            "type": "Feature",
            "properties": {
                "num": "01143002",
                "nom": "DIVONNE ZA",
                "chemin": "https://object.files.data.gouv.fr/meteofrance/data/synchro_ftp/REF_STATION/FICHECLIM_01143002.pdf"
            },
            "geometry": {
                "type": "Point",
                "coordinates": [
                    6.139667,
                    46.3415
                ]
            }
        },
        {
            "type": "Feature",
            "properties": {
                "num": "01072001",
                "nom": "CEYZERIAT_SAPC",
                "chemin": "https://object.files.data.gouv.fr/meteofrance/data/synchro_ftp/REF_STATION/FICHECLIM_01072001.pdf"
            },
            "geometry": {
                "type": "Point",
                "coordinates": [
                    5.287667,
                    46.204333
                ]
            }
        },
        {
            "type": "Feature",
            "properties": {
                "num": "01014002",
                "nom": "ARBENT",
                "chemin": "https://object.files.data.gouv.fr/meteofrance/data/synchro_ftp/REF_STATION/FICHECLIM_01014002.pdf"
            },
            "geometry": {
                "type": "Point",
                "coordinates": [
                    5.669,
                    46.278167
                ]
            }
        },
        {
            "type": "Feature",
            "properties": {
                "num": "01034004",
                "nom": "BELLEY",
                "chemin": "https://object.files.data.gouv.fr/meteofrance/data/synchro_ftp/REF_STATION/FICHECLIM_01034004.pdf"
            },
            "geometry": {
                "type": "Point",
                "coordinates": [
                    5.688,
                    45.769333
                ]
            }
        },
        {
            "type": "Feature",
            "properties": {
                "num": "01071001",
                "nom": "CESSY",
                "chemin": "https://object.files.data.gouv.fr/meteofrance/data/synchro_ftp/REF_STATION/FICHECLIM_01071001.pdf"
            },
            "geometry": {
                "type": "Point",
                "coordinates": [
                    6.080333,
                    46.310333
                ]
            }
        },
        {
            "type": "Feature",
            "properties": {
                "num": "01414001",
                "nom": "SUTRIEU",
                "chemin": "https://object.files.data.gouv.fr/meteofrance/data/synchro_ftp/REF_STATION/FICHECLIM_01414001.pdf"
            },
            "geometry": {
                "type": "Point",
                "coordinates": [
                    5.624667,
                    45.916167
                ]
            }
        },
        {
            "type": "Feature",
            "properties": {
                "num": "02320001",
                "nom": "ST QUENTIN",
                "chemin": "https://object.files.data.gouv.fr/meteofrance/data/synchro_ftp/REF_STATION/FICHECLIM_02320001.pdf"
            },
            "geometry": {
                "type": "Point",
                "coordinates": [
                    3.206,
                    49.818333
                ]
            }
        },
        {
            "type": "Feature",
            "properties": {
                "num": "02173002",
                "nom": "CHAUNY",
                "chemin": "https://object.files.data.gouv.fr/meteofrance/data/synchro_ftp/REF_STATION/FICHECLIM_02173002.pdf"
            },
            "geometry": {
                "type": "Point",
                "coordinates": [
                    3.197833,
                    49.633833
                ]
            }
        },
        {
            "type": "Feature",
            "properties": {
                "num": "02346001",
                "nom": "GIZY",
                "chemin": "https://object.files.data.gouv.fr/meteofrance/data/synchro_ftp/REF_STATION/FICHECLIM_02346001.pdf"
            },
            "geometry": {
                "type": "Point",
                "coordinates": [
                    3.781,
                    49.599833
                ]
            }
        },
        {
            "type": "Feature",
            "properties": {
                "num": "02471001",
                "nom": "MARTIGNY-COURPI",
                "chemin": "https://object.files.data.gouv.fr/meteofrance/data/synchro_ftp/REF_STATION/FICHECLIM_02471001.pdf"
            },
            "geometry": {
                "type": "Point",
                "coordinates": [
                    3.693167,
                    49.485667
                ]
            }
        },
        {
            "type": "Feature",
            "properties": {
                "num": "02321002",
                "nom": "FONTAINE-LES-VV",
                "chemin": "https://object.files.data.gouv.fr/meteofrance/data/synchro_ftp/REF_STATION/FICHECLIM_02321002.pdf"
            },
            "geometry": {
                "type": "Point",
                "coordinates": [
                    3.877833,
                    49.837333
                ]
            }
        },
        {
            "type": "Feature",
            "properties": {
                "num": "02705001",
                "nom": "NIZY-LE-COMTE",
                "chemin": "https://object.files.data.gouv.fr/meteofrance/data/synchro_ftp/REF_STATION/FICHECLIM_02705001.pdf"
            },
            "geometry": {
                "type": "Point",
                "coordinates": [
                    4.0365,
                    49.566
                ]
            }
        },
        {
            "type": "Feature",
            "properties": {
                "num": "02037002",
                "nom": "AULNOIS-SS-LAON",
                "chemin": "https://object.files.data.gouv.fr/meteofrance/data/synchro_ftp/REF_STATION/FICHECLIM_02037002.pdf"
            },
            "geometry": {
                "type": "Point",
                "coordinates": [
                    3.610333,
                    49.595667
                ]
            }
        },
        {
            "type": "Feature",
            "properties": {
                "num": "02110002",
                "nom": "BRAINE",
                "chemin": "https://object.files.data.gouv.fr/meteofrance/data/synchro_ftp/REF_STATION/FICHECLIM_02110002.pdf"
            },
            "geometry": {
                "type": "Point",
                "coordinates": [
                    3.527,
                    49.351333
                ]
            }
        },
        {
            "type": "Feature",
            "properties": {
                "num": "02094001",
                "nom": "BLESMES",
                "chemin": "https://object.files.data.gouv.fr/meteofrance/data/synchro_ftp/REF_STATION/FICHECLIM_02094001.pdf"
            },
            "geometry": {
                "type": "Point",
                "coordinates": [
                    3.462667,
                    49.009667
                ]
            }
        },
        {
            "type": "Feature",
            "properties": {
                "num": "03186001",
                "nom": "MONTMARAULT",
                "chemin": "https://object.files.data.gouv.fr/meteofrance/data/synchro_ftp/REF_STATION/FICHECLIM_03186001.pdf"
            },
            "geometry": {
                "type": "Point",
                "coordinates": [
                    2.9525,
                    46.314833
                ]
            }
        },
        {
            "type": "Feature",
            "properties": {
                "num": "03149002",
                "nom": "LOUCHY-MONTFAND",
                "chemin": "https://object.files.data.gouv.fr/meteofrance/data/synchro_ftp/REF_STATION/FICHECLIM_03149002.pdf"
            },
            "geometry": {
                "type": "Point",
                "coordinates": [
                    3.241833,
                    46.303667
                ]
            }
        },
        {
            "type": "Feature",
            "properties": {
                "num": "03155001",
                "nom": "LURCY-LEVIS",
                "chemin": "https://object.files.data.gouv.fr/meteofrance/data/synchro_ftp/REF_STATION/FICHECLIM_03155001.pdf"
            },
            "geometry": {
                "type": "Point",
                "coordinates": [
                    2.935167,
                    46.730167
                ]
            }
        },
        {
            "type": "Feature",
            "properties": {
                "num": "03165001",
                "nom": "MAYET-DE-MONTAG",
                "chemin": "https://object.files.data.gouv.fr/meteofrance/data/synchro_ftp/REF_STATION/FICHECLIM_03165001.pdf"
            },
            "geometry": {
                "type": "Point",
                "coordinates": [
                    3.684,
                    46.076833
                ]
            }
        },
        {
            "type": "Feature",
            "properties": {
                "num": "03006003",
                "nom": "ARFEUILLES",
                "chemin": "https://object.files.data.gouv.fr/meteofrance/data/synchro_ftp/REF_STATION/FICHECLIM_03006003.pdf"
            },
            "geometry": {
                "type": "Point",
                "coordinates": [
                    3.7355,
                    46.163667
                ]
            }
        },
        {
            "type": "Feature",
            "properties": {
                "num": "03060001",
                "nom": "VICHY-CHARMEIL",
                "chemin": "https://object.files.data.gouv.fr/meteofrance/data/synchro_ftp/REF_STATION/FICHECLIM_03060001.pdf"
            },
            "geometry": {
                "type": "Point",
                "coordinates": [
                    3.398667,
                    46.166667
                ]
            }
        },
        {
            "type": "Feature",
            "properties": {
                "num": "03059001",
                "nom": "CHAREIL-CINTRAT_SAPC",
                "chemin": "https://object.files.data.gouv.fr/meteofrance/data/synchro_ftp/REF_STATION/FICHECLIM_03059001.pdf"
            },
            "geometry": {
                "type": "Point",
                "coordinates": [
                    3.225667,
                    46.275833
                ]
            }
        },
        {
            "type": "Feature",
            "properties": {
                "num": "03130002",
                "nom": "ISLE-ET-BARDAIS",
                "chemin": "https://object.files.data.gouv.fr/meteofrance/data/synchro_ftp/REF_STATION/FICHECLIM_03130002.pdf"
            },
            "geometry": {
                "type": "Point",
                "coordinates": [
                    2.730167,
                    46.663333
                ]
            }
        },
        {
            "type": "Feature",
            "properties": {
                "num": "03204001",
                "nom": "PARAY-SOUS-BRIAILLES",
                "chemin": "https://object.files.data.gouv.fr/meteofrance/data/synchro_ftp/REF_STATION/FICHECLIM_03204001.pdf"
            },
            "geometry": {
                "type": "Point",
                "coordinates": [
                    3.337833,
                    46.2835
                ]
            }
        },
        {
            "type": "Feature",
            "properties": {
                "num": "03240001",
                "nom": "ST-LEON",
                "chemin": "https://object.files.data.gouv.fr/meteofrance/data/synchro_ftp/REF_STATION/FICHECLIM_03240001.pdf"
            },
            "geometry": {
                "type": "Point",
                "coordinates": [
                    3.685833,
                    46.4025
                ]
            }
        },
        {
            "type": "Feature",
            "properties": {
                "num": "03106002",
                "nom": "DURDAT-LAREQUILLE",
                "chemin": "https://object.files.data.gouv.fr/meteofrance/data/synchro_ftp/REF_STATION/FICHECLIM_03106002.pdf"
            },
            "geometry": {
                "type": "Point",
                "coordinates": [
                    2.695667,
                    46.251667
                ]
            }
        },
        {
            "type": "Feature",
            "properties": {
                "num": "03321001",
                "nom": "YZEURE",
                "chemin": "https://object.files.data.gouv.fr/meteofrance/data/synchro_ftp/REF_STATION/FICHECLIM_03321001.pdf"
            },
            "geometry": {
                "type": "Point",
                "coordinates": [
                    3.352833,
                    46.579167
                ]
            }
        },
        {
            "type": "Feature",
            "properties": {
                "num": "03310001",
                "nom": "VICHY-VILLE",
                "chemin": "https://object.files.data.gouv.fr/meteofrance/data/synchro_ftp/REF_STATION/FICHECLIM_03310001.pdf"
            },
            "geometry": {
                "type": "Point",
                "coordinates": [
                    3.439,
                    46.117667
                ]
            }
        },
        {
            "type": "Feature",
            "properties": {
                "num": "03036002",
                "nom": "BOURBON_SAPC",
                "chemin": "https://object.files.data.gouv.fr/meteofrance/data/synchro_ftp/REF_STATION/FICHECLIM_03036002.pdf"
            },
            "geometry": {
                "type": "Point",
                "coordinates": [
                    3.0495,
                    46.58
                ]
            }
        },
        {
            "type": "Feature",
            "properties": {
                "num": "03100001",
                "nom": "DIOU",
                "chemin": "https://object.files.data.gouv.fr/meteofrance/data/synchro_ftp/REF_STATION/FICHECLIM_03100001.pdf"
            },
            "geometry": {
                "type": "Point",
                "coordinates": [
                    3.706667,
                    46.541667
                ]
            }
        },
        {
            "type": "Feature",
            "properties": {
                "num": "03155003",
                "nom": "LURCY-LEVIS SA",
                "chemin": "https://object.files.data.gouv.fr/meteofrance/data/synchro_ftp/REF_STATION/FICHECLIM_03155003.pdf"
            },
            "geometry": {
                "type": "Point",
                "coordinates": [
                    2.947667,
                    46.718333
                ]
            }
        },
        {
            "type": "Feature",
            "properties": {
                "num": "03061001",
                "nom": "CHARMES_SAPC",
                "chemin": "https://object.files.data.gouv.fr/meteofrance/data/synchro_ftp/REF_STATION/FICHECLIM_03061001.pdf"
            },
            "geometry": {
                "type": "Point",
                "coordinates": [
                    3.233667,
                    46.0635
                ]
            }
        },
        {
            "type": "Feature",
            "properties": {
                "num": "03180001",
                "nom": "MONTBEUGNY",
                "chemin": "https://object.files.data.gouv.fr/meteofrance/data/synchro_ftp/REF_STATION/FICHECLIM_03180001.pdf"
            },
            "geometry": {
                "type": "Point",
                "coordinates": [
                    3.423167,
                    46.536333
                ]
            }
        },
        {
            "type": "Feature",
            "properties": {
                "num": "03285001",
                "nom": "TORTEZAIS_SAPC",
                "chemin": "https://object.files.data.gouv.fr/meteofrance/data/synchro_ftp/REF_STATION/FICHECLIM_03285001.pdf"
            },
            "geometry": {
                "type": "Point",
                "coordinates": [
                    2.857,
                    46.451333
                ]
            }
        },
        {
            "type": "Feature",
            "properties": {
                "num": "03185007",
                "nom": "MONTLUCON",
                "chemin": "https://object.files.data.gouv.fr/meteofrance/data/synchro_ftp/REF_STATION/FICHECLIM_03185007.pdf"
            },
            "geometry": {
                "type": "Point",
                "coordinates": [
                    2.574667,
                    46.355167
                ]
            }
        },
        {
            "type": "Feature",
            "properties": {
                "num": "03226001",
                "nom": "SAINT DIDIER_SAPC",
                "chemin": "https://object.files.data.gouv.fr/meteofrance/data/synchro_ftp/REF_STATION/FICHECLIM_03226001.pdf"
            },
            "geometry": {
                "type": "Point",
                "coordinates": [
                    3.850167,
                    46.365333
                ]
            }
        },
        {
            "type": "Feature",
            "properties": {
                "num": "03108001",
                "nom": "ECHASSIERES_SAPC",
                "chemin": "https://object.files.data.gouv.fr/meteofrance/data/synchro_ftp/REF_STATION/FICHECLIM_03108001.pdf"
            },
            "geometry": {
                "type": "Point",
                "coordinates": [
                    2.957667,
                    46.191167
                ]
            }
        },
        {
            "type": "Feature",
            "properties": {
                "num": "03248001",
                "nom": "ST-NICOLAS",
                "chemin": "https://object.files.data.gouv.fr/meteofrance/data/synchro_ftp/REF_STATION/FICHECLIM_03248001.pdf"
            },
            "geometry": {
                "type": "Point",
                "coordinates": [
                    3.805167,
                    46.0515
                ]
            }
        },
        {
            "type": "Feature",
            "properties": {
                "num": "04230001",
                "nom": "VALENSOLE",
                "chemin": "https://object.files.data.gouv.fr/meteofrance/data/synchro_ftp/REF_STATION/FICHECLIM_04230001.pdf"
            },
            "geometry": {
                "type": "Point",
                "coordinates": [
                    6.000833,
                    43.8395
                ]
            }
        },
        {
            "type": "Feature",
            "properties": {
                "num": "04096002",
                "nom": "JAUSIERS-ST ANNE",
                "chemin": "https://object.files.data.gouv.fr/meteofrance/data/synchro_ftp/REF_STATION/FICHECLIM_04096002.pdf"
            },
            "geometry": {
                "type": "Point",
                "coordinates": [
                    6.725167,
                    44.413667
                ]
            }
        },
        {
            "type": "Feature",
            "properties": {
                "num": "04209005",
                "nom": "SISTERON",
                "chemin": "https://object.files.data.gouv.fr/meteofrance/data/synchro_ftp/REF_STATION/FICHECLIM_04209005.pdf"
            },
            "geometry": {
                "type": "Point",
                "coordinates": [
                    5.916,
                    44.2245
                ]
            }
        },
        {
            "type": "Feature",
            "properties": {
                "num": "04049001",
                "nom": "ST AUBAN",
                "chemin": "https://object.files.data.gouv.fr/meteofrance/data/synchro_ftp/REF_STATION/FICHECLIM_04049001.pdf"
            },
            "geometry": {
                "type": "Point",
                "coordinates": [
                    5.989667,
                    44.062167
                ]
            }
        },
        {
            "type": "Feature",
            "properties": {
                "num": "04068001",
                "nom": "DAUPHIN",
                "chemin": "https://object.files.data.gouv.fr/meteofrance/data/synchro_ftp/REF_STATION/FICHECLIM_04068001.pdf"
            },
            "geometry": {
                "type": "Point",
                "coordinates": [
                    5.767167,
                    43.909833
                ]
            }
        },
        {
            "type": "Feature",
            "properties": {
                "num": "04070009",
                "nom": "DIGNE LES BAINS",
                "chemin": "https://object.files.data.gouv.fr/meteofrance/data/synchro_ftp/REF_STATION/FICHECLIM_04070009.pdf"
            },
            "geometry": {
                "type": "Point",
                "coordinates": [
                    6.186667,
                    44.07
                ]
            }
        },
        {
            "type": "Feature",
            "properties": {
                "num": "04115001",
                "nom": "MEAILLES_SAPC",
                "chemin": "https://object.files.data.gouv.fr/meteofrance/data/synchro_ftp/REF_STATION/FICHECLIM_04115001.pdf"
            },
            "geometry": {
                "type": "Point",
                "coordinates": [
                    6.6295,
                    44.031167
                ]
            }
        },
        {
            "type": "Feature",
            "properties": {
                "num": "04136001",
                "nom": "LA MURE-ARGENS",
                "chemin": "https://object.files.data.gouv.fr/meteofrance/data/synchro_ftp/REF_STATION/FICHECLIM_04136001.pdf"
            },
            "geometry": {
                "type": "Point",
                "coordinates": [
                    6.520167,
                    43.977
                ]
            }
        },
        {
            "type": "Feature",
            "properties": {
                "num": "04019001",
                "nom": "BARCELONNETTE",
                "chemin": "https://object.files.data.gouv.fr/meteofrance/data/synchro_ftp/REF_STATION/FICHECLIM_04019001.pdf"
            },
            "geometry": {
                "type": "Point",
                "coordinates": [
                    6.670167,
                    44.391167
                ]
            }
        },
        {
            "type": "Feature",
            "properties": {
                "num": "04126001",
                "nom": "MONTCLAR_SAPC",
                "chemin": "https://object.files.data.gouv.fr/meteofrance/data/synchro_ftp/REF_STATION/FICHECLIM_04126001.pdf"
            },
            "geometry": {
                "type": "Point",
                "coordinates": [
                    6.333333,
                    44.391833
                ]
            }
        },
        {
            "type": "Feature",
            "properties": {
                "num": "04184001",
                "nom": "ST JURS",
                "chemin": "https://object.files.data.gouv.fr/meteofrance/data/synchro_ftp/REF_STATION/FICHECLIM_04184001.pdf"
            },
            "geometry": {
                "type": "Point",
                "coordinates": [
                    6.2005,
                    43.900833
                ]
            }
        },
        {
            "type": "Feature",
            "properties": {
                "num": "04039001",
                "nom": "CASTELLANE",
                "chemin": "https://object.files.data.gouv.fr/meteofrance/data/synchro_ftp/REF_STATION/FICHECLIM_04039001.pdf"
            },
            "geometry": {
                "type": "Point",
                "coordinates": [
                    6.508,
                    43.849167
                ]
            }
        },
        {
            "type": "Feature",
            "properties": {
                "num": "04222001",
                "nom": "TURRIERS",
                "chemin": "https://object.files.data.gouv.fr/meteofrance/data/synchro_ftp/REF_STATION/FICHECLIM_04222001.pdf"
            },
            "geometry": {
                "type": "Point",
                "coordinates": [
                    6.1695,
                    44.399
                ]
            }
        },
        {
            "type": "Feature",
            "properties": {
                "num": "04006005",
                "nom": "ALLOS_SAPC",
                "chemin": "https://object.files.data.gouv.fr/meteofrance/data/synchro_ftp/REF_STATION/FICHECLIM_04006005.pdf"
            },
            "geometry": {
                "type": "Point",
                "coordinates": [
                    6.625333,
                    44.2425
                ]
            }
        },
        {
            "type": "Feature",
            "properties": {
                "num": "05007001",
                "nom": "ARVIEUX LA CHALP",
                "chemin": "https://object.files.data.gouv.fr/meteofrance/data/synchro_ftp/REF_STATION/FICHECLIM_05007001.pdf"
            },
            "geometry": {
                "type": "Point",
                "coordinates": [
                    6.736667,
                    44.781167
                ]
            }
        },
        {
            "type": "Feature",
            "properties": {
                "num": "05120002",
                "nom": "RISTOLAS",
                "chemin": "https://object.files.data.gouv.fr/meteofrance/data/synchro_ftp/REF_STATION/FICHECLIM_05120002.pdf"
            },
            "geometry": {
                "type": "Point",
                "coordinates": [
                    6.9845,
                    44.765667
                ]
            }
        },
        {
            "type": "Feature",
            "properties": {
                "num": "05183001",
                "nom": "VILLAR ST PANCRACE",
                "chemin": "https://object.files.data.gouv.fr/meteofrance/data/synchro_ftp/REF_STATION/FICHECLIM_05183001.pdf"
            },
            "geometry": {
                "type": "Point",
                "coordinates": [
                    6.640333,
                    44.880333
                ]
            }
        },
        {
            "type": "Feature",
            "properties": {
                "num": "05093001",
                "nom": "NEVACHE-EDF-03",
                "chemin": "https://object.files.data.gouv.fr/meteofrance/data/synchro_ftp/REF_STATION/FICHECLIM_05093001.pdf"
            },
            "geometry": {
                "type": "Point",
                "coordinates": [
                    6.622333,
                    45.0185
                ]
            }
        },
        {
            "type": "Feature",
            "properties": {
                "num": "05061009",
                "nom": "GAP",
                "chemin": "https://object.files.data.gouv.fr/meteofrance/data/synchro_ftp/REF_STATION/FICHECLIM_05061009.pdf"
            },
            "geometry": {
                "type": "Point",
                "coordinates": [
                    6.079833,
                    44.577667
                ]
            }
        },
        {
            "type": "Feature",
            "properties": {
                "num": "05070003",
                "nom": "LARAGNE MONTEGLIN",
                "chemin": "https://object.files.data.gouv.fr/meteofrance/data/synchro_ftp/REF_STATION/FICHECLIM_05070003.pdf"
            },
            "geometry": {
                "type": "Point",
                "coordinates": [
                    5.7945,
                    44.319167
                ]
            }
        },
        {
            "type": "Feature",
            "properties": {
                "num": "05098001",
                "nom": "LES ORRES",
                "chemin": "https://object.files.data.gouv.fr/meteofrance/data/synchro_ftp/REF_STATION/FICHECLIM_05098001.pdf"
            },
            "geometry": {
                "type": "Point",
                "coordinates": [
                    6.559333,
                    44.508833
                ]
            }
        },
        {
            "type": "Feature",
            "properties": {
                "num": "05070001",
                "nom": "LARAGNE-MONTEGLIN",
                "chemin": "https://object.files.data.gouv.fr/meteofrance/data/synchro_ftp/REF_STATION/FICHECLIM_05070001.pdf"
            },
            "geometry": {
                "type": "Point",
                "coordinates": [
                    5.827,
                    44.316667
                ]
            }
        },
        {
            "type": "Feature",
            "properties": {
                "num": "05132001",
                "nom": "ST-BONNET CHAMPSAUR",
                "chemin": "https://object.files.data.gouv.fr/meteofrance/data/synchro_ftp/REF_STATION/FICHECLIM_05132001.pdf"
            },
            "geometry": {
                "type": "Point",
                "coordinates": [
                    6.072833,
                    44.684167
                ]
            }
        },
        {
            "type": "Feature",
            "properties": {
                "num": "05139002",
                "nom": "ST ETIENNE-EN-DEVOLUY",
                "chemin": "https://object.files.data.gouv.fr/meteofrance/data/synchro_ftp/REF_STATION/FICHECLIM_05139002.pdf"
            },
            "geometry": {
                "type": "Point",
                "coordinates": [
                    5.9405,
                    44.6945
                ]
            }
        },
        {
            "type": "Feature",
            "properties": {
                "num": "05142001",
                "nom": "ST FIRMIN",
                "chemin": "https://object.files.data.gouv.fr/meteofrance/data/synchro_ftp/REF_STATION/FICHECLIM_05142001.pdf"
            },
            "geometry": {
                "type": "Point",
                "coordinates": [
                    6.035,
                    44.7825
                ]
            }
        },
        {
            "type": "Feature",
            "properties": {
                "num": "05158001",
                "nom": "LE SAIX",
                "chemin": "https://object.files.data.gouv.fr/meteofrance/data/synchro_ftp/REF_STATION/FICHECLIM_05158001.pdf"
            },
            "geometry": {
                "type": "Point",
                "coordinates": [
                    5.8155,
                    44.475833
                ]
            }
        },
        {
            "type": "Feature",
            "properties": {
                "num": "05079001",
                "nom": "LE MONETIER LES BAINS",
                "chemin": "https://object.files.data.gouv.fr/meteofrance/data/synchro_ftp/REF_STATION/FICHECLIM_05079001.pdf"
            },
            "geometry": {
                "type": "Point",
                "coordinates": [
                    6.514167,
                    44.9715
                ]
            }
        },
        {
            "type": "Feature",
            "properties": {
                "num": "05064001",
                "nom": "CHAPELLE-EN-VALGAUDEMAR",
                "chemin": "https://object.files.data.gouv.fr/meteofrance/data/synchro_ftp/REF_STATION/FICHECLIM_05064001.pdf"
            },
            "geometry": {
                "type": "Point",
                "coordinates": [
                    6.195333,
                    44.81
                ]
            }
        },
        {
            "type": "Feature",
            "properties": {
                "num": "05126001",
                "nom": "ROSANS",
                "chemin": "https://object.files.data.gouv.fr/meteofrance/data/synchro_ftp/REF_STATION/FICHECLIM_05126001.pdf"
            },
            "geometry": {
                "type": "Point",
                "coordinates": [
                    5.462167,
                    44.3875
                ]
            }
        },
        {
            "type": "Feature",
            "properties": {
                "num": "05170001",
                "nom": "TALLARD",
                "chemin": "https://object.files.data.gouv.fr/meteofrance/data/synchro_ftp/REF_STATION/FICHECLIM_05170001.pdf"
            },
            "geometry": {
                "type": "Point",
                "coordinates": [
                    6.033333,
                    44.452167
                ]
            }
        },
        {
            "type": "Feature",
            "properties": {
                "num": "05026001",
                "nom": "CEILLAC",
                "chemin": "https://object.files.data.gouv.fr/meteofrance/data/synchro_ftp/REF_STATION/FICHECLIM_05026001.pdf"
            },
            "geometry": {
                "type": "Point",
                "coordinates": [
                    6.776167,
                    44.671167
                ]
            }
        },
        {
            "type": "Feature",
            "properties": {
                "num": "05046001",
                "nom": "EMBRUN",
                "chemin": "https://object.files.data.gouv.fr/meteofrance/data/synchro_ftp/REF_STATION/FICHECLIM_05046001.pdf"
            },
            "geometry": {
                "type": "Point",
                "coordinates": [
                    6.508667,
                    44.571167
                ]
            }
        },
        {
            "type": "Feature",
            "properties": {
                "num": "05007003",
                "nom": "ARVIEUX",
                "chemin": "https://object.files.data.gouv.fr/meteofrance/data/synchro_ftp/REF_STATION/FICHECLIM_05007003.pdf"
            },
            "geometry": {
                "type": "Point",
                "coordinates": [
                    6.728,
                    44.796
                ]
            }
        },
        {
            "type": "Feature",
            "properties": {
                "num": "05182001",
                "nom": "VILLAR LOUBIERE",
                "chemin": "https://object.files.data.gouv.fr/meteofrance/data/synchro_ftp/REF_STATION/FICHECLIM_05182001.pdf"
            },
            "geometry": {
                "type": "Point",
                "coordinates": [
                    6.146,
                    44.826833
                ]
            }
        },
        {
            "type": "Feature",
            "properties": {
                "num": "05181002",
                "nom": "VILLAR D'ARENE",
                "chemin": "https://object.files.data.gouv.fr/meteofrance/data/synchro_ftp/REF_STATION/FICHECLIM_05181002.pdf"
            },
            "geometry": {
                "type": "Point",
                "coordinates": [
                    6.361667,
                    45.030833
                ]
            }
        },
        {
            "type": "Feature",
            "properties": {
                "num": "05157001",
                "nom": "ST VERAN",
                "chemin": "https://object.files.data.gouv.fr/meteofrance/data/synchro_ftp/REF_STATION/FICHECLIM_05157001.pdf"
            },
            "geometry": {
                "type": "Point",
                "coordinates": [
                    6.870167,
                    44.6985
                ]
            }
        },
        {
            "type": "Feature",
            "properties": {
                "num": "05101001",
                "nom": "PELVOUX",
                "chemin": "https://object.files.data.gouv.fr/meteofrance/data/synchro_ftp/REF_STATION/FICHECLIM_05101001.pdf"
            },
            "geometry": {
                "type": "Point",
                "coordinates": [
                    6.486667,
                    44.866833
                ]
            }
        },
        {
            "type": "Feature",
            "properties": {
                "num": "05136002",
                "nom": "ST CREPIN",
                "chemin": "https://object.files.data.gouv.fr/meteofrance/data/synchro_ftp/REF_STATION/FICHECLIM_05136002.pdf"
            },
            "geometry": {
                "type": "Point",
                "coordinates": [
                    6.6,
                    44.7045
                ]
            }
        },
        {
            "type": "Feature",
            "properties": {
                "num": "05145002",
                "nom": "ST JEAN-ST-NICOLAS",
                "chemin": "https://object.files.data.gouv.fr/meteofrance/data/synchro_ftp/REF_STATION/FICHECLIM_05145002.pdf"
            },
            "geometry": {
                "type": "Point",
                "coordinates": [
                    6.209833,
                    44.670833
                ]
            }
        },
        {
            "type": "Feature",
            "properties": {
                "num": "05055001",
                "nom": "LA FAURIE",
                "chemin": "https://object.files.data.gouv.fr/meteofrance/data/synchro_ftp/REF_STATION/FICHECLIM_05055001.pdf"
            },
            "geometry": {
                "type": "Point",
                "coordinates": [
                    5.750167,
                    44.566667
                ]
            }
        },
        {
            "type": "Feature",
            "properties": {
                "num": "06136005",
                "nom": "SOSPEL",
                "chemin": "https://object.files.data.gouv.fr/meteofrance/data/synchro_ftp/REF_STATION/FICHECLIM_06136005.pdf"
            },
            "geometry": {
                "type": "Point",
                "coordinates": [
                    7.433667,
                    43.862833
                ]
            }
        },
        {
            "type": "Feature",
            "properties": {
                "num": "06127001",
                "nom": "ST-MARTIN-DE-VESUBIE-OBS",
                "chemin": "https://object.files.data.gouv.fr/meteofrance/data/synchro_ftp/REF_STATION/FICHECLIM_06127001.pdf"
            },
            "geometry": {
                "type": "Point",
                "coordinates": [
                    7.254167,
                    44.074167
                ]
            }
        },
        {
            "type": "Feature",
            "properties": {
                "num": "06029001",
                "nom": "CANNES",
                "chemin": "https://object.files.data.gouv.fr/meteofrance/data/synchro_ftp/REF_STATION/FICHECLIM_06029001.pdf"
            },
            "geometry": {
                "type": "Point",
                "coordinates": [
                    6.9505,
                    43.5565
                ]
            }
        },
        {
            "type": "Feature",
            "properties": {
                "num": "06088001",
                "nom": "NICE",
                "chemin": "https://object.files.data.gouv.fr/meteofrance/data/synchro_ftp/REF_STATION/FICHECLIM_06088001.pdf"
            },
            "geometry": {
                "type": "Point",
                "coordinates": [
                    7.209,
                    43.648833
                ]
            }
        },
        {
            "type": "Feature",
            "properties": {
                "num": "06079002",
                "nom": "MANDELIEU LA NAPOULE_SAPC",
                "chemin": "https://object.files.data.gouv.fr/meteofrance/data/synchro_ftp/REF_STATION/FICHECLIM_06079002.pdf"
            },
            "geometry": {
                "type": "Point",
                "coordinates": [
                    6.898667,
                    43.523667
                ]
            }
        },
        {
            "type": "Feature",
            "properties": {
                "num": "06075007",
                "nom": "LEVENS",
                "chemin": "https://object.files.data.gouv.fr/meteofrance/data/synchro_ftp/REF_STATION/FICHECLIM_06075007.pdf"
            },
            "geometry": {
                "type": "Point",
                "coordinates": [
                    7.21,
                    43.846333
                ]
            }
        },
        {
            "type": "Feature",
            "properties": {
                "num": "06102001",
                "nom": "RIMPLAS_SAPC",
                "chemin": "https://object.files.data.gouv.fr/meteofrance/data/synchro_ftp/REF_STATION/FICHECLIM_06102001.pdf"
            },
            "geometry": {
                "type": "Point",
                "coordinates": [
                    7.1335,
                    44.067167
                ]
            }
        },
        {
            "type": "Feature",
            "properties": {
                "num": "06125001",
                "nom": "ST MARTIN D'ENTRAUNES_SAPC",
                "chemin": "https://object.files.data.gouv.fr/meteofrance/data/synchro_ftp/REF_STATION/FICHECLIM_06125001.pdf"
            },
            "geometry": {
                "type": "Point",
                "coordinates": [
                    6.747,
                    44.154667
                ]
            }
        },
        {
            "type": "Feature",
            "properties": {
                "num": "06094002",
                "nom": "PEONE",
                "chemin": "https://object.files.data.gouv.fr/meteofrance/data/synchro_ftp/REF_STATION/FICHECLIM_06094002.pdf"
            },
            "geometry": {
                "type": "Point",
                "coordinates": [
                    6.930833,
                    44.099667
                ]
            }
        },
        {
            "type": "Feature",
            "properties": {
                "num": "06005001",
                "nom": "ASCROS",
                "chemin": "https://object.files.data.gouv.fr/meteofrance/data/synchro_ftp/REF_STATION/FICHECLIM_06005001.pdf"
            },
            "geometry": {
                "type": "Point",
                "coordinates": [
                    7.013667,
                    43.922
                ]
            }
        },
        {
            "type": "Feature",
            "properties": {
                "num": "06073005",
                "nom": "ISOLA 2000",
                "chemin": "https://object.files.data.gouv.fr/meteofrance/data/synchro_ftp/REF_STATION/FICHECLIM_06073005.pdf"
            },
            "geometry": {
                "type": "Point",
                "coordinates": [
                    7.149,
                    44.1895
                ]
            }
        },
        {
            "type": "Feature",
            "properties": {
                "num": "06037002",
                "nom": "CAUSSOLS",
                "chemin": "https://object.files.data.gouv.fr/meteofrance/data/synchro_ftp/REF_STATION/FICHECLIM_06037002.pdf"
            },
            "geometry": {
                "type": "Point",
                "coordinates": [
                    6.923167,
                    43.752333
                ]
            }
        },
        {
            "type": "Feature",
            "properties": {
                "num": "06074005",
                "nom": "LANTOSQUE_SAPC",
                "chemin": "https://object.files.data.gouv.fr/meteofrance/data/synchro_ftp/REF_STATION/FICHECLIM_06074005.pdf"
            },
            "geometry": {
                "type": "Point",
                "coordinates": [
                    7.307,
                    43.972
                ]
            }
        },
        {
            "type": "Feature",
            "properties": {
                "num": "06077006",
                "nom": "PEIRA CAVA",
                "chemin": "https://object.files.data.gouv.fr/meteofrance/data/synchro_ftp/REF_STATION/FICHECLIM_06077006.pdf"
            },
            "geometry": {
                "type": "Point",
                "coordinates": [
                    7.363333,
                    43.929167
                ]
            }
        },
        {
            "type": "Feature",
            "properties": {
                "num": "06081001",
                "nom": "LE MAS",
                "chemin": "https://object.files.data.gouv.fr/meteofrance/data/synchro_ftp/REF_STATION/FICHECLIM_06081001.pdf"
            },
            "geometry": {
                "type": "Point",
                "coordinates": [
                    6.809333,
                    43.813667
                ]
            }
        },
        {
            "type": "Feature",
            "properties": {
                "num": "06088007",
                "nom": "NICE-RIMIEZ",
                "chemin": "https://object.files.data.gouv.fr/meteofrance/data/synchro_ftp/REF_STATION/FICHECLIM_06088007.pdf"
            },
            "geometry": {
                "type": "Point",
                "coordinates": [
                    7.279167,
                    43.738667
                ]
            }
        },
        {
            "type": "Feature",
            "properties": {
                "num": "06118002",
                "nom": "ST CEZAIRE SUR SIAGNE",
                "chemin": "https://object.files.data.gouv.fr/meteofrance/data/synchro_ftp/REF_STATION/FICHECLIM_06118002.pdf"
            },
            "geometry": {
                "type": "Point",
                "coordinates": [
                    6.809,
                    43.678667
                ]
            }
        },
        {
            "type": "Feature",
            "properties": {
                "num": "06120004",
                "nom": "ST ETIENNE DE TINEE_SAPC",
                "chemin": "https://object.files.data.gouv.fr/meteofrance/data/synchro_ftp/REF_STATION/FICHECLIM_06120004.pdf"
            },
            "geometry": {
                "type": "Point",
                "coordinates": [
                    6.921167,
                    44.257667
                ]
            }
        },
        {
            "type": "Feature",
            "properties": {
                "num": "06152002",
                "nom": "VALBONNE-SOPHIA",
                "chemin": "https://object.files.data.gouv.fr/meteofrance/data/synchro_ftp/REF_STATION/FICHECLIM_06152002.pdf"
            },
            "geometry": {
                "type": "Point",
                "coordinates": [
                    7.0285,
                    43.623167
                ]
            }
        },
        {
            "type": "Feature",
            "properties": {
                "num": "06163007",
                "nom": "TENDE_SAPC",
                "chemin": "https://object.files.data.gouv.fr/meteofrance/data/synchro_ftp/REF_STATION/FICHECLIM_06163007.pdf"
            },
            "geometry": {
                "type": "Point",
                "coordinates": [
                    7.586,
                    44.043167
                ]
            }
        },
        {
            "type": "Feature",
            "properties": {
                "num": "06090002",
                "nom": "PEGOMAS",
                "chemin": "https://object.files.data.gouv.fr/meteofrance/data/synchro_ftp/REF_STATION/FICHECLIM_06090002.pdf"
            },
            "geometry": {
                "type": "Point",
                "coordinates": [
                    6.936667,
                    43.602667
                ]
            }
        },
        {
            "type": "Feature",
            "properties": {
                "num": "06004009",
                "nom": "ANTIBES_SAPC",
                "chemin": "https://object.files.data.gouv.fr/meteofrance/data/synchro_ftp/REF_STATION/FICHECLIM_06004009.pdf"
            },
            "geometry": {
                "type": "Point",
                "coordinates": [
                    7.111167,
                    43.599167
                ]
            }
        },
        {
            "type": "Feature",
            "properties": {
                "num": "06091003",
                "nom": "PEILLE",
                "chemin": "https://object.files.data.gouv.fr/meteofrance/data/synchro_ftp/REF_STATION/FICHECLIM_06091003.pdf"
            },
            "geometry": {
                "type": "Point",
                "coordinates": [
                    7.428333,
                    43.775167
                ]
            }
        },
        {
            "type": "Feature",
            "properties": {
                "num": "07294001",
                "nom": "ST-SAUVEUR SA",
                "chemin": "https://object.files.data.gouv.fr/meteofrance/data/synchro_ftp/REF_STATION/FICHECLIM_07294001.pdf"
            },
            "geometry": {
                "type": "Point",
                "coordinates": [
                    4.26,
                    44.296
                ]
            }
        },
        {
            "type": "Feature",
            "properties": {
                "num": "07232001",
                "nom": "ST-ETIENNE LUGDARES",
                "chemin": "https://object.files.data.gouv.fr/meteofrance/data/synchro_ftp/REF_STATION/FICHECLIM_07232001.pdf"
            },
            "geometry": {
                "type": "Point",
                "coordinates": [
                    3.9485,
                    44.651333
                ]
            }
        },
        {
            "type": "Feature",
            "properties": {
                "num": "07011004",
                "nom": "ANTRAIGUES SA",
                "chemin": "https://object.files.data.gouv.fr/meteofrance/data/synchro_ftp/REF_STATION/FICHECLIM_07011004.pdf"
            },
            "geometry": {
                "type": "Point",
                "coordinates": [
                    4.352167,
                    44.712167
                ]
            }
        },
        {
            "type": "Feature",
            "properties": {
                "num": "07101002",
                "nom": "GROSPIERRES SA",
                "chemin": "https://object.files.data.gouv.fr/meteofrance/data/synchro_ftp/REF_STATION/FICHECLIM_07101002.pdf"
            },
            "geometry": {
                "type": "Point",
                "coordinates": [
                    4.295833,
                    44.4115
                ]
            }
        },
        {
            "type": "Feature",
            "properties": {
                "num": "07069001",
                "nom": "COLOMBIER VIEUX SA",
                "chemin": "https://object.files.data.gouv.fr/meteofrance/data/synchro_ftp/REF_STATION/FICHECLIM_07069001.pdf"
            },
            "geometry": {
                "type": "Point",
                "coordinates": [
                    4.698,
                    45.063667
                ]
            }
        },
        {
            "type": "Feature",
            "properties": {
                "num": "07228001",
                "nom": "ST-DESIRAT SA",
                "chemin": "https://object.files.data.gouv.fr/meteofrance/data/synchro_ftp/REF_STATION/FICHECLIM_07228001.pdf"
            },
            "geometry": {
                "type": "Point",
                "coordinates": [
                    4.783667,
                    45.260333
                ]
            }
        },
        {
            "type": "Feature",
            "properties": {
                "num": "07185001",
                "nom": "PREAUX SA",
                "chemin": "https://object.files.data.gouv.fr/meteofrance/data/synchro_ftp/REF_STATION/FICHECLIM_07185001.pdf"
            },
            "geometry": {
                "type": "Point",
                "coordinates": [
                    4.665,
                    45.14
                ]
            }
        },
        {
            "type": "Feature",
            "properties": {
                "num": "07131001",
                "nom": "LANAS SYN",
                "chemin": "https://object.files.data.gouv.fr/meteofrance/data/synchro_ftp/REF_STATION/FICHECLIM_07131001.pdf"
            },
            "geometry": {
                "type": "Point",
                "coordinates": [
                    4.368167,
                    44.537167
                ]
            }
        },
        {
            "type": "Feature",
            "properties": {
                "num": "07334004",
                "nom": "LES VANS-SA",
                "chemin": "https://object.files.data.gouv.fr/meteofrance/data/synchro_ftp/REF_STATION/FICHECLIM_07334004.pdf"
            },
            "geometry": {
                "type": "Point",
                "coordinates": [
                    4.150833,
                    44.4155
                ]
            }
        },
        {
            "type": "Feature",
            "properties": {
                "num": "07005001",
                "nom": "ALBA LA ROMAINE",
                "chemin": "https://object.files.data.gouv.fr/meteofrance/data/synchro_ftp/REF_STATION/FICHECLIM_07005001.pdf"
            },
            "geometry": {
                "type": "Point",
                "coordinates": [
                    4.5825,
                    44.539833
                ]
            }
        },
        {
            "type": "Feature",
            "properties": {
                "num": "07010001",
                "nom": "ANNONAY",
                "chemin": "https://object.files.data.gouv.fr/meteofrance/data/synchro_ftp/REF_STATION/FICHECLIM_07010001.pdf"
            },
            "geometry": {
                "type": "Point",
                "coordinates": [
                    4.6705,
                    45.246167
                ]
            }
        },
        {
            "type": "Feature",
            "properties": {
                "num": "07019005",
                "nom": "AUBENAS SA",
                "chemin": "https://object.files.data.gouv.fr/meteofrance/data/synchro_ftp/REF_STATION/FICHECLIM_07019005.pdf"
            },
            "geometry": {
                "type": "Point",
                "coordinates": [
                    4.409833,
                    44.601667
                ]
            }
        },
        {
            "type": "Feature",
            "properties": {
                "num": "07159001",
                "nom": "MIRABEL SA",
                "chemin": "https://object.files.data.gouv.fr/meteofrance/data/synchro_ftp/REF_STATION/FICHECLIM_07159001.pdf"
            },
            "geometry": {
                "type": "Point",
                "coordinates": [
                    4.497333,
                    44.5815
                ]
            }
        },
        {
            "type": "Feature",
            "properties": {
                "num": "07117001",
                "nom": "LABLACHERE DROME",
                "chemin": "https://object.files.data.gouv.fr/meteofrance/data/synchro_ftp/REF_STATION/FICHECLIM_07117001.pdf"
            },
            "geometry": {
                "type": "Point",
                "coordinates": [
                    4.234833,
                    44.461333
                ]
            }
        },
        {
            "type": "Feature",
            "properties": {
                "num": "07144001",
                "nom": "LOUBARESSE",
                "chemin": "https://object.files.data.gouv.fr/meteofrance/data/synchro_ftp/REF_STATION/FICHECLIM_07144001.pdf"
            },
            "geometry": {
                "type": "Point",
                "coordinates": [
                    4.049333,
                    44.599833
                ]
            }
        },
        {
            "type": "Feature",
            "properties": {
                "num": "07064001",
                "nom": "CHEYLARD SA",
                "chemin": "https://object.files.data.gouv.fr/meteofrance/data/synchro_ftp/REF_STATION/FICHECLIM_07064001.pdf"
            },
            "geometry": {
                "type": "Point",
                "coordinates": [
                    4.4375,
                    44.914833
                ]
            }
        },
        {
            "type": "Feature",
            "properties": {
                "num": "07066001",
                "nom": "CHOMERAC SA_RCE",
                "chemin": "https://object.files.data.gouv.fr/meteofrance/data/synchro_ftp/REF_STATION/FICHECLIM_07066001.pdf"
            },
            "geometry": {
                "type": "Point",
                "coordinates": [
                    4.648333,
                    44.6995
                ]
            }
        },
        {
            "type": "Feature",
            "properties": {
                "num": "07338001",
                "nom": "VERNOUX",
                "chemin": "https://object.files.data.gouv.fr/meteofrance/data/synchro_ftp/REF_STATION/FICHECLIM_07338001.pdf"
            },
            "geometry": {
                "type": "Point",
                "coordinates": [
                    4.652333,
                    44.8995
                ]
            }
        },
        {
            "type": "Feature",
            "properties": {
                "num": "07161001",
                "nom": "MONTPEZAT SA",
                "chemin": "https://object.files.data.gouv.fr/meteofrance/data/synchro_ftp/REF_STATION/FICHECLIM_07161001.pdf"
            },
            "geometry": {
                "type": "Point",
                "coordinates": [
                    4.207,
                    44.715667
                ]
            }
        },
        {
            "type": "Feature",
            "properties": {
                "num": "07261001",
                "nom": "ST-LAURENT PAPE",
                "chemin": "https://object.files.data.gouv.fr/meteofrance/data/synchro_ftp/REF_STATION/FICHECLIM_07261001.pdf"
            },
            "geometry": {
                "type": "Point",
                "coordinates": [
                    4.746833,
                    44.817833
                ]
            }
        },
        {
            "type": "Feature",
            "properties": {
                "num": "07101001",
                "nom": "GROSPIERRES",
                "chemin": "https://object.files.data.gouv.fr/meteofrance/data/synchro_ftp/REF_STATION/FICHECLIM_07101001.pdf"
            },
            "geometry": {
                "type": "Point",
                "coordinates": [
                    4.300833,
                    44.411333
                ]
            }
        },
        {
            "type": "Feature",
            "properties": {
                "num": "07286002",
                "nom": "ST-PIERREVILLE",
                "chemin": "https://object.files.data.gouv.fr/meteofrance/data/synchro_ftp/REF_STATION/FICHECLIM_07286002.pdf"
            },
            "geometry": {
                "type": "Point",
                "coordinates": [
                    4.485,
                    44.814333
                ]
            }
        },
        {
            "type": "Feature",
            "properties": {
                "num": "07025001",
                "nom": "BARNAS RAD",
                "chemin": "https://object.files.data.gouv.fr/meteofrance/data/synchro_ftp/REF_STATION/FICHECLIM_07025001.pdf"
            },
            "geometry": {
                "type": "Point",
                "coordinates": [
                    4.159833,
                    44.666
                ]
            }
        },
        {
            "type": "Feature",
            "properties": {
                "num": "07105003",
                "nom": "ISSANLAS_SAPC",
                "chemin": "https://object.files.data.gouv.fr/meteofrance/data/synchro_ftp/REF_STATION/FICHECLIM_07105003.pdf"
            },
            "geometry": {
                "type": "Point",
                "coordinates": [
                    3.975333,
                    44.7555
                ]
            }
        },
        {
            "type": "Feature",
            "properties": {
                "num": "07154005",
                "nom": "MAZAN ABBAYE RAD",
                "chemin": "https://object.files.data.gouv.fr/meteofrance/data/synchro_ftp/REF_STATION/FICHECLIM_07154005.pdf"
            },
            "geometry": {
                "type": "Point",
                "coordinates": [
                    4.083833,
                    44.733833
                ]
            }
        },
        {
            "type": "Feature",
            "properties": {
                "num": "07068001",
                "nom": "COLOMBIER JEUNE RAD",
                "chemin": "https://object.files.data.gouv.fr/meteofrance/data/synchro_ftp/REF_STATION/FICHECLIM_07068001.pdf"
            },
            "geometry": {
                "type": "Point",
                "coordinates": [
                    4.671167,
                    45.0155
                ]
            }
        },
        {
            "type": "Feature",
            "properties": {
                "num": "07117002",
                "nom": "LABLACHERE",
                "chemin": "https://object.files.data.gouv.fr/meteofrance/data/synchro_ftp/REF_STATION/FICHECLIM_07117002.pdf"
            },
            "geometry": {
                "type": "Point",
                "coordinates": [
                    4.208333,
                    44.480833
                ]
            }
        },
        {
            "type": "Feature",
            "properties": {
                "num": "07265001",
                "nom": "ST-MARCEL ANNONAY",
                "chemin": "https://object.files.data.gouv.fr/meteofrance/data/synchro_ftp/REF_STATION/FICHECLIM_07265001.pdf"
            },
            "geometry": {
                "type": "Point",
                "coordinates": [
                    4.642,
                    45.296
                ]
            }
        },
        {
            "type": "Feature",
            "properties": {
                "num": "07172002",
                "nom": "PEAUGRES RAD",
                "chemin": "https://object.files.data.gouv.fr/meteofrance/data/synchro_ftp/REF_STATION/FICHECLIM_07172002.pdf"
            },
            "geometry": {
                "type": "Point",
                "coordinates": [
                    4.705833,
                    45.286167
                ]
            }
        },
        {
            "type": "Feature",
            "properties": {
                "num": "07204008",
                "nom": "ST-AGREVE RAD",
                "chemin": "https://object.files.data.gouv.fr/meteofrance/data/synchro_ftp/REF_STATION/FICHECLIM_07204008.pdf"
            },
            "geometry": {
                "type": "Point",
                "coordinates": [
                    4.368,
                    44.997833
                ]
            }
        },
        {
            "type": "Feature",
            "properties": {
                "num": "07331001",
                "nom": "VALS-LES-BAINS",
                "chemin": "https://object.files.data.gouv.fr/meteofrance/data/synchro_ftp/REF_STATION/FICHECLIM_07331001.pdf"
            },
            "geometry": {
                "type": "Point",
                "coordinates": [
                    4.360667,
                    44.6695
                ]
            }
        },
        {
            "type": "Feature",
            "properties": {
                "num": "07032002",
                "nom": "BERZEME RAD",
                "chemin": "https://object.files.data.gouv.fr/meteofrance/data/synchro_ftp/REF_STATION/FICHECLIM_07032002.pdf"
            },
            "geometry": {
                "type": "Point",
                "coordinates": [
                    4.566333,
                    44.628333
                ]
            }
        },
        {
            "type": "Feature",
            "properties": {
                "num": "07075001",
                "nom": "CROS GEORAND",
                "chemin": "https://object.files.data.gouv.fr/meteofrance/data/synchro_ftp/REF_STATION/FICHECLIM_07075001.pdf"
            },
            "geometry": {
                "type": "Point",
                "coordinates": [
                    4.099667,
                    44.780167
                ]
            }
        },
        {
            "type": "Feature",
            "properties": {
                "num": "07128001",
                "nom": "LALOUVESC",
                "chemin": "https://object.files.data.gouv.fr/meteofrance/data/synchro_ftp/REF_STATION/FICHECLIM_07128001.pdf"
            },
            "geometry": {
                "type": "Point",
                "coordinates": [
                    4.535,
                    45.117833
                ]
            }
        },
        {
            "type": "Feature",
            "properties": {
                "num": "07096001",
                "nom": "GLUIRAS RAD",
                "chemin": "https://object.files.data.gouv.fr/meteofrance/data/synchro_ftp/REF_STATION/FICHECLIM_07096001.pdf"
            },
            "geometry": {
                "type": "Point",
                "coordinates": [
                    4.524,
                    44.839333
                ]
            }
        },
        {
            "type": "Feature",
            "properties": {
                "num": "07202002",
                "nom": "SABLIERES OARA",
                "chemin": "https://object.files.data.gouv.fr/meteofrance/data/synchro_ftp/REF_STATION/FICHECLIM_07202002.pdf"
            },
            "geometry": {
                "type": "Point",
                "coordinates": [
                    4.0725,
                    44.533
                ]
            }
        },
        {
            "type": "Feature",
            "properties": {
                "num": "07187001",
                "nom": "CROIX MILLET",
                "chemin": "https://object.files.data.gouv.fr/meteofrance/data/synchro_ftp/REF_STATION/FICHECLIM_07187001.pdf"
            },
            "geometry": {
                "type": "Point",
                "coordinates": [
                    4.241333,
                    44.606333
                ]
            }
        },
        {
            "type": "Feature",
            "properties": {
                "num": "07168001",
                "nom": "ORGNAC AVEN",
                "chemin": "https://object.files.data.gouv.fr/meteofrance/data/synchro_ftp/REF_STATION/FICHECLIM_07168001.pdf"
            },
            "geometry": {
                "type": "Point",
                "coordinates": [
                    4.421667,
                    44.288333
                ]
            }
        },
        {
            "type": "Feature",
            "properties": {
                "num": "07330004",
                "nom": "VALLON SA",
                "chemin": "https://object.files.data.gouv.fr/meteofrance/data/synchro_ftp/REF_STATION/FICHECLIM_07330004.pdf"
            },
            "geometry": {
                "type": "Point",
                "coordinates": [
                    4.403667,
                    44.391833
                ]
            }
        },
        {
            "type": "Feature",
            "properties": {
                "num": "08092001",
                "nom": "CAUROY",
                "chemin": "https://object.files.data.gouv.fr/meteofrance/data/synchro_ftp/REF_STATION/FICHECLIM_08092001.pdf"
            },
            "geometry": {
                "type": "Point",
                "coordinates": [
                    4.465167,
                    49.346833
                ]
            }
        },
        {
            "type": "Feature",
            "properties": {
                "num": "08105005",
                "nom": "CHARLEVILLE-MEZ",
                "chemin": "https://object.files.data.gouv.fr/meteofrance/data/synchro_ftp/REF_STATION/FICHECLIM_08105005.pdf"
            },
            "geometry": {
                "type": "Point",
                "coordinates": [
                    4.643167,
                    49.782833
                ]
            }
        },
        {
            "type": "Feature",
            "properties": {
                "num": "08255001",
                "nom": "LINAY",
                "chemin": "https://object.files.data.gouv.fr/meteofrance/data/synchro_ftp/REF_STATION/FICHECLIM_08255001.pdf"
            },
            "geometry": {
                "type": "Point",
                "coordinates": [
                    5.216833,
                    49.616833
                ]
            }
        },
        {
            "type": "Feature",
            "properties": {
                "num": "08046001",
                "nom": "BANOGNE-RECOUVRANCE",
                "chemin": "https://object.files.data.gouv.fr/meteofrance/data/synchro_ftp/REF_STATION/FICHECLIM_08046001.pdf"
            },
            "geometry": {
                "type": "Point",
                "coordinates": [
                    4.129167,
                    49.571667
                ]
            }
        },
        {
            "type": "Feature",
            "properties": {
                "num": "08419001",
                "nom": "SIGNY-L'ABBAYE",
                "chemin": "https://object.files.data.gouv.fr/meteofrance/data/synchro_ftp/REF_STATION/FICHECLIM_08419001.pdf"
            },
            "geometry": {
                "type": "Point",
                "coordinates": [
                    4.418833,
                    49.686
                ]
            }
        },
        {
            "type": "Feature",
            "properties": {
                "num": "08239001",
                "nom": "JUNIVILLE",
                "chemin": "https://object.files.data.gouv.fr/meteofrance/data/synchro_ftp/REF_STATION/FICHECLIM_08239001.pdf"
            },
            "geometry": {
                "type": "Point",
                "coordinates": [
                    4.371667,
                    49.397333
                ]
            }
        },
        {
            "type": "Feature",
            "properties": {
                "num": "08145001",
                "nom": "DOUZY",
                "chemin": "https://object.files.data.gouv.fr/meteofrance/data/synchro_ftp/REF_STATION/FICHECLIM_08145001.pdf"
            },
            "geometry": {
                "type": "Point",
                "coordinates": [
                    5.039833,
                    49.658
                ]
            }
        },
        {
            "type": "Feature",
            "properties": {
                "num": "08089003",
                "nom": "BUZANCY_SAPC",
                "chemin": "https://object.files.data.gouv.fr/meteofrance/data/synchro_ftp/REF_STATION/FICHECLIM_08089003.pdf"
            },
            "geometry": {
                "type": "Point",
                "coordinates": [
                    4.9645,
                    49.427333
                ]
            }
        },
        {
            "type": "Feature",
            "properties": {
                "num": "08248002",
                "nom": "LAUNOIS-SUR-VENCE_SAPC",
                "chemin": "https://object.files.data.gouv.fr/meteofrance/data/synchro_ftp/REF_STATION/FICHECLIM_08248002.pdf"
            },
            "geometry": {
                "type": "Point",
                "coordinates": [
                    4.534667,
                    49.671833
                ]
            }
        },
        {
            "type": "Feature",
            "properties": {
                "num": "08401001",
                "nom": "SAULCES-CHAMPENOISES",
                "chemin": "https://object.files.data.gouv.fr/meteofrance/data/synchro_ftp/REF_STATION/FICHECLIM_08401001.pdf"
            },
            "geometry": {
                "type": "Point",
                "coordinates": [
                    4.4925,
                    49.423833
                ]
            }
        },
        {
            "type": "Feature",
            "properties": {
                "num": "08296002",
                "nom": "MONTCHEUTIN_SAPC",
                "chemin": "https://object.files.data.gouv.fr/meteofrance/data/synchro_ftp/REF_STATION/FICHECLIM_08296002.pdf"
            },
            "geometry": {
                "type": "Point",
                "coordinates": [
                    4.809667,
                    49.287333
                ]
            }
        },
        {
            "type": "Feature",
            "properties": {
                "num": "08367002",
                "nom": "ROCROI",
                "chemin": "https://object.files.data.gouv.fr/meteofrance/data/synchro_ftp/REF_STATION/FICHECLIM_08367002.pdf"
            },
            "geometry": {
                "type": "Point",
                "coordinates": [
                    4.53,
                    49.918667
                ]
            }
        },
        {
            "type": "Feature",
            "properties": {
                "num": "09023002",
                "nom": "ASCOU LAVAIL",
                "chemin": "https://object.files.data.gouv.fr/meteofrance/data/synchro_ftp/REF_STATION/FICHECLIM_09023002.pdf"
            },
            "geometry": {
                "type": "Point",
                "coordinates": [
                    1.8885,
                    42.725333
                ]
            }
        },
        {
            "type": "Feature",
            "properties": {
                "num": "09027001",
                "nom": "AUGIREIN",
                "chemin": "https://object.files.data.gouv.fr/meteofrance/data/synchro_ftp/REF_STATION/FICHECLIM_09027001.pdf"
            },
            "geometry": {
                "type": "Point",
                "coordinates": [
                    0.92,
                    42.930167
                ]
            }
        },
        {
            "type": "Feature",
            "properties": {
                "num": "09206001",
                "nom": "MONTFERRIER",
                "chemin": "https://object.files.data.gouv.fr/meteofrance/data/synchro_ftp/REF_STATION/FICHECLIM_09206001.pdf"
            },
            "geometry": {
                "type": "Point",
                "coordinates": [
                    1.781167,
                    42.891833
                ]
            }
        },
        {
            "type": "Feature",
            "properties": {
                "num": "09250001",
                "nom": "LES CASCADES",
                "chemin": "https://object.files.data.gouv.fr/meteofrance/data/synchro_ftp/REF_STATION/FICHECLIM_09250001.pdf"
            },
            "geometry": {
                "type": "Point",
                "coordinates": [
                    1.748,
                    42.963667
                ]
            }
        },
        {
            "type": "Feature",
            "properties": {
                "num": "09277001",
                "nom": "ST-YBARS",
                "chemin": "https://object.files.data.gouv.fr/meteofrance/data/synchro_ftp/REF_STATION/FICHECLIM_09277001.pdf"
            },
            "geometry": {
                "type": "Point",
                "coordinates": [
                    1.4215,
                    43.2515
                ]
            }
        },
        {
            "type": "Feature",
            "properties": {
                "num": "09334004",
                "nom": "VICDESSOS",
                "chemin": "https://object.files.data.gouv.fr/meteofrance/data/synchro_ftp/REF_STATION/FICHECLIM_09334004.pdf"
            },
            "geometry": {
                "type": "Point",
                "coordinates": [
                    1.488167,
                    42.771667
                ]
            }
        },
        {
            "type": "Feature",
            "properties": {
                "num": "09042003",
                "nom": "LA BASTIDE DE S",
                "chemin": "https://object.files.data.gouv.fr/meteofrance/data/synchro_ftp/REF_STATION/FICHECLIM_09042003.pdf"
            },
            "geometry": {
                "type": "Point",
                "coordinates": [
                    1.3885,
                    43.024333
                ]
            }
        },
        {
            "type": "Feature",
            "properties": {
                "num": "09289001",
                "nom": "ST GIRONS",
                "chemin": "https://object.files.data.gouv.fr/meteofrance/data/synchro_ftp/REF_STATION/FICHECLIM_09289001.pdf"
            },
            "geometry": {
                "type": "Point",
                "coordinates": [
                    1.106833,
                    43.005333
                ]
            }
        },
        {
            "type": "Feature",
            "properties": {
                "num": "09199002",
                "nom": "MONTAUT",
                "chemin": "https://object.files.data.gouv.fr/meteofrance/data/synchro_ftp/REF_STATION/FICHECLIM_09199002.pdf"
            },
            "geometry": {
                "type": "Point",
                "coordinates": [
                    1.6435,
                    43.192167
                ]
            }
        },
        {
            "type": "Feature",
            "properties": {
                "num": "09099001",
                "nom": "COS",
                "chemin": "https://object.files.data.gouv.fr/meteofrance/data/synchro_ftp/REF_STATION/FICHECLIM_09099001.pdf"
            },
            "geometry": {
                "type": "Point",
                "coordinates": [
                    1.5645,
                    42.970167
                ]
            }
        },
        {
            "type": "Feature",
            "properties": {
                "num": "09094001",
                "nom": "CERIZOLS",
                "chemin": "https://object.files.data.gouv.fr/meteofrance/data/synchro_ftp/REF_STATION/FICHECLIM_09094001.pdf"
            },
            "geometry": {
                "type": "Point",
                "coordinates": [
                    1.063,
                    43.126
                ]
            }
        },
        {
            "type": "Feature",
            "properties": {
                "num": "09161003",
                "nom": "LERAN",
                "chemin": "https://object.files.data.gouv.fr/meteofrance/data/synchro_ftp/REF_STATION/FICHECLIM_09161003.pdf"
            },
            "geometry": {
                "type": "Point",
                "coordinates": [
                    1.919167,
                    42.990333
                ]
            }
        },
        {
            "type": "Feature",
            "properties": {
                "num": "09024004",
                "nom": "ASTON",
                "chemin": "https://object.files.data.gouv.fr/meteofrance/data/synchro_ftp/REF_STATION/FICHECLIM_09024004.pdf"
            },
            "geometry": {
                "type": "Point",
                "coordinates": [
                    1.691,
                    42.724167
                ]
            }
        },
        {
            "type": "Feature",
            "properties": {
                "num": "10372001",
                "nom": "SOULAINES",
                "chemin": "https://object.files.data.gouv.fr/meteofrance/data/synchro_ftp/REF_STATION/FICHECLIM_10372001.pdf"
            },
            "geometry": {
                "type": "Point",
                "coordinates": [
                    4.671333,
                    48.399333
                ]
            }
        },
        {
            "type": "Feature",
            "properties": {
                "num": "10360001",
                "nom": "ST-POUANGE",
                "chemin": "https://object.files.data.gouv.fr/meteofrance/data/synchro_ftp/REF_STATION/FICHECLIM_10360001.pdf"
            },
            "geometry": {
                "type": "Point",
                "coordinates": [
                    4.049833,
                    48.238833
                ]
            }
        },
        {
            "type": "Feature",
            "properties": {
                "num": "10030001",
                "nom": "TROYES-BARBEREY",
                "chemin": "https://object.files.data.gouv.fr/meteofrance/data/synchro_ftp/REF_STATION/FICHECLIM_10030001.pdf"
            },
            "geometry": {
                "type": "Point",
                "coordinates": [
                    4.02,
                    48.324667
                ]
            }
        },
        {
            "type": "Feature",
            "properties": {
                "num": "10119001",
                "nom": "CUNFIN_SAPC",
                "chemin": "https://object.files.data.gouv.fr/meteofrance/data/synchro_ftp/REF_STATION/FICHECLIM_10119001.pdf"
            },
            "geometry": {
                "type": "Point",
                "coordinates": [
                    4.6785,
                    48.0365
                ]
            }
        },
        {
            "type": "Feature",
            "properties": {
                "num": "10228002",
                "nom": "MATHAUX-ETAPE",
                "chemin": "https://object.files.data.gouv.fr/meteofrance/data/synchro_ftp/REF_STATION/FICHECLIM_10228002.pdf"
            },
            "geometry": {
                "type": "Point",
                "coordinates": [
                    4.472333,
                    48.353167
                ]
            }
        },
        {
            "type": "Feature",
            "properties": {
                "num": "10238001",
                "nom": "MESNIL-ST-PERE",
                "chemin": "https://object.files.data.gouv.fr/meteofrance/data/synchro_ftp/REF_STATION/FICHECLIM_10238001.pdf"
            },
            "geometry": {
                "type": "Point",
                "coordinates": [
                    4.322167,
                    48.244833
                ]
            }
        },
        {
            "type": "Feature",
            "properties": {
                "num": "10070001",
                "nom": "CELLES-SUR-OURCE",
                "chemin": "https://object.files.data.gouv.fr/meteofrance/data/synchro_ftp/REF_STATION/FICHECLIM_10070001.pdf"
            },
            "geometry": {
                "type": "Point",
                "coordinates": [
                    4.411333,
                    48.0675
                ]
            }
        },
        {
            "type": "Feature",
            "properties": {
                "num": "10130001",
                "nom": "DOSNON",
                "chemin": "https://object.files.data.gouv.fr/meteofrance/data/synchro_ftp/REF_STATION/FICHECLIM_10130001.pdf"
            },
            "geometry": {
                "type": "Point",
                "coordinates": [
                    4.224667,
                    48.609167
                ]
            }
        },
        {
            "type": "Feature",
            "properties": {
                "num": "10323001",
                "nom": "ROMILLY",
                "chemin": "https://object.files.data.gouv.fr/meteofrance/data/synchro_ftp/REF_STATION/FICHECLIM_10323001.pdf"
            },
            "geometry": {
                "type": "Point",
                "coordinates": [
                    3.7495,
                    48.503333
                ]
            }
        },
        {
            "type": "Feature",
            "properties": {
                "num": "10002001",
                "nom": "AILLEVILLE_SAPC",
                "chemin": "https://object.files.data.gouv.fr/meteofrance/data/synchro_ftp/REF_STATION/FICHECLIM_10002001.pdf"
            },
            "geometry": {
                "type": "Point",
                "coordinates": [
                    4.685667,
                    48.254167
                ]
            }
        },
        {
            "type": "Feature",
            "properties": {
                "num": "10099002",
                "nom": "CHESSY-LES-PRES_SAPC",
                "chemin": "https://object.files.data.gouv.fr/meteofrance/data/synchro_ftp/REF_STATION/FICHECLIM_10099002.pdf"
            },
            "geometry": {
                "type": "Point",
                "coordinates": [
                    3.915,
                    48.0255
                ]
            }
        },
        {
            "type": "Feature",
            "properties": {
                "num": "10350001",
                "nom": "ST-MARDS",
                "chemin": "https://object.files.data.gouv.fr/meteofrance/data/synchro_ftp/REF_STATION/FICHECLIM_10350001.pdf"
            },
            "geometry": {
                "type": "Point",
                "coordinates": [
                    3.789,
                    48.169833
                ]
            }
        },
        {
            "type": "Feature",
            "properties": {
                "num": "10057001",
                "nom": "BOUY-SUR-ORVIN",
                "chemin": "https://object.files.data.gouv.fr/meteofrance/data/synchro_ftp/REF_STATION/FICHECLIM_10057001.pdf"
            },
            "geometry": {
                "type": "Point",
                "coordinates": [
                    3.504833,
                    48.439833
                ]
            }
        },
        {
            "type": "Feature",
            "properties": {
                "num": "11136001",
                "nom": "FANJEAUX_SAPC",
                "chemin": "https://object.files.data.gouv.fr/meteofrance/data/synchro_ftp/REF_STATION/FICHECLIM_11136001.pdf"
            },
            "geometry": {
                "type": "Point",
                "coordinates": [
                    2.07,
                    43.202
                ]
            }
        },
        {
            "type": "Feature",
            "properties": {
                "num": "11404001",
                "nom": "VENTENAC-CABARDES",
                "chemin": "https://object.files.data.gouv.fr/meteofrance/data/synchro_ftp/REF_STATION/FICHECLIM_11404001.pdf"
            },
            "geometry": {
                "type": "Point",
                "coordinates": [
                    2.302333,
                    43.264833
                ]
            }
        },
        {
            "type": "Feature",
            "properties": {
                "num": "11333001",
                "nom": "ST BENOIT",
                "chemin": "https://object.files.data.gouv.fr/meteofrance/data/synchro_ftp/REF_STATION/FICHECLIM_11333001.pdf"
            },
            "geometry": {
                "type": "Point",
                "coordinates": [
                    2.0455,
                    43.004
                ]
            }
        },
        {
            "type": "Feature",
            "properties": {
                "num": "11295001",
                "nom": "PORTEL-DES-CORBIERES",
                "chemin": "https://object.files.data.gouv.fr/meteofrance/data/synchro_ftp/REF_STATION/FICHECLIM_11295001.pdf"
            },
            "geometry": {
                "type": "Point",
                "coordinates": [
                    2.9435,
                    43.041
                ]
            }
        },
        {
            "type": "Feature",
            "properties": {
                "num": "11243001",
                "nom": "MONTFERRAND",
                "chemin": "https://object.files.data.gouv.fr/meteofrance/data/synchro_ftp/REF_STATION/FICHECLIM_11243001.pdf"
            },
            "geometry": {
                "type": "Point",
                "coordinates": [
                    1.821667,
                    43.3535
                ]
            }
        },
        {
            "type": "Feature",
            "properties": {
                "num": "11203004",
                "nom": "LEZIGNAN-CORBIERES",
                "chemin": "https://object.files.data.gouv.fr/meteofrance/data/synchro_ftp/REF_STATION/FICHECLIM_11203004.pdf"
            },
            "geometry": {
                "type": "Point",
                "coordinates": [
                    2.728833,
                    43.173
                ]
            }
        },
        {
            "type": "Feature",
            "properties": {
                "num": "11069001",
                "nom": "CARCASSONNE",
                "chemin": "https://object.files.data.gouv.fr/meteofrance/data/synchro_ftp/REF_STATION/FICHECLIM_11069001.pdf"
            },
            "geometry": {
                "type": "Point",
                "coordinates": [
                    2.2955,
                    43.215333
                ]
            }
        },
        {
            "type": "Feature",
            "properties": {
                "num": "11262005",
                "nom": "NARBONNE",
                "chemin": "https://object.files.data.gouv.fr/meteofrance/data/synchro_ftp/REF_STATION/FICHECLIM_11262005.pdf"
            },
            "geometry": {
                "type": "Point",
                "coordinates": [
                    2.955833,
                    43.150333
                ]
            }
        },
        {
            "type": "Feature",
            "properties": {
                "num": "11012001",
                "nom": "ARGELIERS",
                "chemin": "https://object.files.data.gouv.fr/meteofrance/data/synchro_ftp/REF_STATION/FICHECLIM_11012001.pdf"
            },
            "geometry": {
                "type": "Point",
                "coordinates": [
                    2.911667,
                    43.308167
                ]
            }
        },
        {
            "type": "Feature",
            "properties": {
                "num": "11144001",
                "nom": "FITOU",
                "chemin": "https://object.files.data.gouv.fr/meteofrance/data/synchro_ftp/REF_STATION/FICHECLIM_11144001.pdf"
            },
            "geometry": {
                "type": "Point",
                "coordinates": [
                    2.995833,
                    42.894667
                ]
            }
        },
        {
            "type": "Feature",
            "properties": {
                "num": "11221004",
                "nom": "LES MARTYS",
                "chemin": "https://object.files.data.gouv.fr/meteofrance/data/synchro_ftp/REF_STATION/FICHECLIM_11221004.pdf"
            },
            "geometry": {
                "type": "Point",
                "coordinates": [
                    2.292333,
                    43.4085
                ]
            }
        },
        {
            "type": "Feature",
            "properties": {
                "num": "11206003",
                "nom": "LIMOUX",
                "chemin": "https://object.files.data.gouv.fr/meteofrance/data/synchro_ftp/REF_STATION/FICHECLIM_11206003.pdf"
            },
            "geometry": {
                "type": "Point",
                "coordinates": [
                    2.201167,
                    43.046
                ]
            }
        },
        {
            "type": "Feature",
            "properties": {
                "num": "11124003",
                "nom": "DURBAN-CORBIERES",
                "chemin": "https://object.files.data.gouv.fr/meteofrance/data/synchro_ftp/REF_STATION/FICHECLIM_11124003.pdf"
            },
            "geometry": {
                "type": "Point",
                "coordinates": [
                    2.819167,
                    42.993333
                ]
            }
        },
        {
            "type": "Feature",
            "properties": {
                "num": "11016003",
                "nom": "ARQUETTES-EN-VAL",
                "chemin": "https://object.files.data.gouv.fr/meteofrance/data/synchro_ftp/REF_STATION/FICHECLIM_11016003.pdf"
            },
            "geometry": {
                "type": "Point",
                "coordinates": [
                    2.503333,
                    43.100833
                ]
            }
        },
        {
            "type": "Feature",
            "properties": {
                "num": "11185001",
                "nom": "LAGRASSE",
                "chemin": "https://object.files.data.gouv.fr/meteofrance/data/synchro_ftp/REF_STATION/FICHECLIM_11185001.pdf"
            },
            "geometry": {
                "type": "Point",
                "coordinates": [
                    2.621833,
                    43.0915
                ]
            }
        },
        {
            "type": "Feature",
            "properties": {
                "num": "11181002",
                "nom": "LABECEDE LAURAGAIS_SAPC",
                "chemin": "https://object.files.data.gouv.fr/meteofrance/data/synchro_ftp/REF_STATION/FICHECLIM_11181002.pdf"
            },
            "geometry": {
                "type": "Point",
                "coordinates": [
                    2.022167,
                    43.3895
                ]
            }
        },
        {
            "type": "Feature",
            "properties": {
                "num": "11081003",
                "nom": "CAUNES-MINERVOIS",
                "chemin": "https://object.files.data.gouv.fr/meteofrance/data/synchro_ftp/REF_STATION/FICHECLIM_11081003.pdf"
            },
            "geometry": {
                "type": "Point",
                "coordinates": [
                    2.481,
                    43.334333
                ]
            }
        },
        {
            "type": "Feature",
            "properties": {
                "num": "11260002",
                "nom": "MOUTHOUMET",
                "chemin": "https://object.files.data.gouv.fr/meteofrance/data/synchro_ftp/REF_STATION/FICHECLIM_11260002.pdf"
            },
            "geometry": {
                "type": "Point",
                "coordinates": [
                    2.529,
                    42.9595
                ]
            }
        },
        {
            "type": "Feature",
            "properties": {
                "num": "11168001",
                "nom": "GRANES",
                "chemin": "https://object.files.data.gouv.fr/meteofrance/data/synchro_ftp/REF_STATION/FICHECLIM_11168001.pdf"
            },
            "geometry": {
                "type": "Point",
                "coordinates": [
                    2.2505,
                    42.909167
                ]
            }
        },
        {
            "type": "Feature",
            "properties": {
                "num": "11028001",
                "nom": "BELCAIRE",
                "chemin": "https://object.files.data.gouv.fr/meteofrance/data/synchro_ftp/REF_STATION/FICHECLIM_11028001.pdf"
            },
            "geometry": {
                "type": "Point",
                "coordinates": [
                    1.968,
                    42.8195
                ]
            }
        },
        {
            "type": "Feature",
            "properties": {
                "num": "11076001",
                "nom": "CASTELNAUDARY",
                "chemin": "https://object.files.data.gouv.fr/meteofrance/data/synchro_ftp/REF_STATION/FICHECLIM_11076001.pdf"
            },
            "geometry": {
                "type": "Point",
                "coordinates": [
                    1.949167,
                    43.305333
                ]
            }
        },
        {
            "type": "Feature",
            "properties": {
                "num": "11004001",
                "nom": "ALAIGNE",
                "chemin": "https://object.files.data.gouv.fr/meteofrance/data/synchro_ftp/REF_STATION/FICHECLIM_11004001.pdf"
            },
            "geometry": {
                "type": "Point",
                "coordinates": [
                    2.098333,
                    43.1125
                ]
            }
        },